{
    "cafes": [
        {
            "name": "Great Lakes Coffee #1",
            "category": "Coffee Shop",
            "streetAddress": "3965 Woodward Ave",
            "city": "Detroit",
            "state": "MI",
            "postalCode": "48201",
            "phoneNumber": "(313) 555-1000",
            "description": "Modern cafe with locally roasted coffee and comfy seating.",
            "goodFor": "Remote Work",
            "openTime": "7:00 AM",
            "closeTime": "9:00 PM",
            "latitude": 42.321992,
            "longitude": -83.060322
        },
        {
            "name": "The Gathering Coffee Co. #2",
            "category": "Neighborhood Cafe",
            "streetAddress": "2831 E Grand Blvd",
            "city": "Detroit",
            "state": "MI",
            "postalCode": "48211",
            "phoneNumber": "(313) 555-1001",
            "description": "Community-centered cafe serving local brews & bites.",
            "goodFor": "Study",
            "openTime": "7:30 AM",
            "closeTime": "7:00 PM",
            "latitude": 42.323211,
            "longitude": -83.035771
        },
        {
            "name": "Roasting Plant Coffee #3",
            "category": "Espresso Bar",
            "streetAddress": "660 Woodward Ave",
            "city": "Detroit",
            "state": "MI",
            "postalCode": "48226",
            "phoneNumber": "(313) 555-1002",
            "description": "High-tech coffee bar with custom brews made to order.",
            "goodFor": "Espresso",
            "openTime": "6:30 AM",
            "closeTime": "8:00 PM",
            "latitude": 42.355161,
            "longitude": -83.019697
        },
        {
            "name": "The Gathering Coffee Co. #4",
            "category": "Neighborhood Cafe",
            "streetAddress": "2831 E Grand Blvd",
            "city": "Detroit",
            "state": "MI",
            "postalCode": "48211",
            "phoneNumber": "(313) 555-1003",
            "description": "Community-centered cafe serving local brews & bites.",
            "goodFor": "Study",
            "openTime": "7:30 AM",
            "closeTime": "7:00 PM",
            "latitude": 42.334582,
            "longitude": -83.064644
        },
        {
            "name": "The Gathering Coffee Co. #5",
            "category": "Neighborhood Cafe",
            "streetAddress": "2831 E Grand Blvd",
            "city": "Detroit",
            "state": "MI",
            "postalCode": "48211",
            "phoneNumber": "(313) 555-1004",
            "description": "Community-centered cafe serving local brews & bites.",
            "goodFor": "Study",
            "openTime": "7:30 AM",
            "closeTime": "7:00 PM",
            "latitude": 42.359391,
            "longitude": -83.034953
        },
        {
            "name": "The Gathering Coffee Co. #6",
            "category": "Neighborhood Cafe",
            "streetAddress": "2831 E Grand Blvd",
            "city": "Detroit",
            "state": "MI",
            "postalCode": "48211",
            "phoneNumber": "(313) 555-1005",
            "description": "Community-centered cafe serving local brews & bites.",
            "goodFor": "Study",
            "openTime": "7:30 AM",
            "closeTime": "7:00 PM",
            "latitude": 42.333865,
            "longitude": -83.057698
        },
        {
            "name": "Astro Coffee #7",
            "category": "Cafe",
            "streetAddress": "2124 Michigan Ave",
            "city": "Detroit",
            "state": "MI",
            "postalCode": "48216",
            "phoneNumber": "(313) 555-1006",
            "description": "Trendy, relaxed cafe with artisanal coffee & pastries.",
            "goodFor": "Brunch",
            "openTime": "8:00 AM",
            "closeTime": "4:00 PM",
            "latitude": 42.309203,
            "longitude": -83.034572
        },
        {
            "name": "Astro Coffee #8",
            "category": "Cafe",
            "streetAddress": "2124 Michigan Ave",
            "city": "Detroit",
            "state": "MI",
            "postalCode": "48216",
            "phoneNumber": "(313) 555-1007",
            "description": "Trendy, relaxed cafe with artisanal coffee & pastries.",
            "goodFor": "Brunch",
            "openTime": "8:00 AM",
            "closeTime": "4:00 PM",
            "latitude": 42.334449,
            "longitude": -83.048639
        },
        {
            "name": "The Gathering Coffee Co. #9",
            "category": "Neighborhood Cafe",
            "streetAddress": "2831 E Grand Blvd",
            "city": "Detroit",
            "state": "MI",
            "postalCode": "48211",
            "phoneNumber": "(313) 555-1008",
            "description": "Community-centered cafe serving local brews & bites.",
            "goodFor": "Study",
            "openTime": "7:30 AM",
            "closeTime": "7:00 PM",
            "latitude": 42.312331,
            "longitude": -83.049574
        },
        {
            "name": "The Gathering Coffee Co. #10",
            "category": "Neighborhood Cafe",
            "streetAddress": "2831 E Grand Blvd",
            "city": "Detroit",
            "state": "MI",
            "postalCode": "48211",
            "phoneNumber": "(313) 555-1009",
            "description": "Community-centered cafe serving local brews & bites.",
            "goodFor": "Study",
            "openTime": "7:30 AM",
            "closeTime": "7:00 PM",
            "latitude": 42.340023,
            "longitude": -83.033091
        },
        {
            "name": "Madcap Coffee #11",
            "category": "Coffee Roaster",
            "streetAddress": "1413 Farmer St",
            "city": "Detroit",
            "state": "MI",
            "postalCode": "48226",
            "phoneNumber": "(313) 555-1010",
            "description": "Boutique roaster with a focus on single-origin beans.",
            "goodFor": "Coffee Enthusiasts",
            "openTime": "8:00 AM",
            "closeTime": "6:00 PM",
            "latitude": 42.317906,
            "longitude": -83.026691
        },
        {
            "name": "Roasting Plant Coffee #12",
            "category": "Espresso Bar",
            "streetAddress": "660 Woodward Ave",
            "city": "Detroit",
            "state": "MI",
            "postalCode": "48226",
            "phoneNumber": "(313) 555-1011",
            "description": "High-tech coffee bar with custom brews made to order.",
            "goodFor": "Espresso",
            "openTime": "6:30 AM",
            "closeTime": "8:00 PM",
            "latitude": 42.348828,
            "longitude": -83.039707
        },
        {
            "name": "Astro Coffee #13",
            "category": "Cafe",
            "streetAddress": "2124 Michigan Ave",
            "city": "Detroit",
            "state": "MI",
            "postalCode": "48216",
            "phoneNumber": "(313) 555-1012",
            "description": "Trendy, relaxed cafe with artisanal coffee & pastries.",
            "goodFor": "Brunch",
            "openTime": "8:00 AM",
            "closeTime": "4:00 PM",
            "latitude": 42.355722,
            "longitude": -83.053932
        },
        {
            "name": "Madcap Coffee #14",
            "category": "Coffee Roaster",
            "streetAddress": "1413 Farmer St",
            "city": "Detroit",
            "state": "MI",
            "postalCode": "48226",
            "phoneNumber": "(313) 555-1013",
            "description": "Boutique roaster with a focus on single-origin beans.",
            "goodFor": "Coffee Enthusiasts",
            "openTime": "8:00 AM",
            "closeTime": "6:00 PM",
            "latitude": 42.314325,
            "longitude": -83.067094
        },
        {
            "name": "Roasting Plant Coffee #15",
            "category": "Espresso Bar",
            "streetAddress": "660 Woodward Ave",
            "city": "Detroit",
            "state": "MI",
            "postalCode": "48226",
            "phoneNumber": "(313) 555-1014",
            "description": "High-tech coffee bar with custom brews made to order.",
            "goodFor": "Espresso",
            "openTime": "6:30 AM",
            "closeTime": "8:00 PM",
            "latitude": 42.328205,
            "longitude": -83.074808
        },
        {
            "name": "Madcap Coffee #16",
            "category": "Coffee Roaster",
            "streetAddress": "1413 Farmer St",
            "city": "Detroit",
            "state": "MI",
            "postalCode": "48226",
            "phoneNumber": "(313) 555-1015",
            "description": "Boutique roaster with a focus on single-origin beans.",
            "goodFor": "Coffee Enthusiasts",
            "openTime": "8:00 AM",
            "closeTime": "6:00 PM",
            "latitude": 42.342542,
            "longitude": -83.052829
        },
        {
            "name": "Great Lakes Coffee #17",
            "category": "Coffee Shop",
            "streetAddress": "3965 Woodward Ave",
            "city": "Detroit",
            "state": "MI",
            "postalCode": "48201",
            "phoneNumber": "(313) 555-1016",
            "description": "Modern cafe with locally roasted coffee and comfy seating.",
            "goodFor": "Remote Work",
            "openTime": "7:00 AM",
            "closeTime": "9:00 PM",
            "latitude": 42.340917,
            "longitude": -83.061389
        },
        {
            "name": "Roasting Plant Coffee #18",
            "category": "Espresso Bar",
            "streetAddress": "660 Woodward Ave",
            "city": "Detroit",
            "state": "MI",
            "postalCode": "48226",
            "phoneNumber": "(313) 555-1017",
            "description": "High-tech coffee bar with custom brews made to order.",
            "goodFor": "Espresso",
            "openTime": "6:30 AM",
            "closeTime": "8:00 PM",
            "latitude": 42.334257,
            "longitude": -83.020753
        },
        {
            "name": "Roasting Plant Coffee #19",
            "category": "Espresso Bar",
            "streetAddress": "660 Woodward Ave",
            "city": "Detroit",
            "state": "MI",
            "postalCode": "48226",
            "phoneNumber": "(313) 555-1018",
            "description": "High-tech coffee bar with custom brews made to order.",
            "goodFor": "Espresso",
            "openTime": "6:30 AM",
            "closeTime": "8:00 PM",
            "latitude": 42.332941,
            "longitude": -83.063492
        },
        {
            "name": "The Gathering Coffee Co. #20",
            "category": "Neighborhood Cafe",
            "streetAddress": "2831 E Grand Blvd",
            "city": "Detroit",
            "state": "MI",
            "postalCode": "48211",
            "phoneNumber": "(313) 555-1019",
            "description": "Community-centered cafe serving local brews & bites.",
            "goodFor": "Study",
            "openTime": "7:30 AM",
            "closeTime": "7:00 PM",
            "latitude": 42.333184,
            "longitude": -83.067385
        },
        {
            "name": "Great Lakes Coffee #21",
            "category": "Coffee Shop",
            "streetAddress": "3965 Woodward Ave",
            "city": "Detroit",
            "state": "MI",
            "postalCode": "48201",
            "phoneNumber": "(313) 555-1020",
            "description": "Modern cafe with locally roasted coffee and comfy seating.",
            "goodFor": "Remote Work",
            "openTime": "7:00 AM",
            "closeTime": "9:00 PM",
            "latitude": 42.325787,
            "longitude": -83.028866
        },
        {
            "name": "Astro Coffee #22",
            "category": "Cafe",
            "streetAddress": "2124 Michigan Ave",
            "city": "Detroit",
            "state": "MI",
            "postalCode": "48216",
            "phoneNumber": "(313) 555-1021",
            "description": "Trendy, relaxed cafe with artisanal coffee & pastries.",
            "goodFor": "Brunch",
            "openTime": "8:00 AM",
            "closeTime": "4:00 PM",
            "latitude": 42.355913,
            "longitude": -83.066738
        },
        {
            "name": "Astro Coffee #23",
            "category": "Cafe",
            "streetAddress": "2124 Michigan Ave",
            "city": "Detroit",
            "state": "MI",
            "postalCode": "48216",
            "phoneNumber": "(313) 555-1022",
            "description": "Trendy, relaxed cafe with artisanal coffee & pastries.",
            "goodFor": "Brunch",
            "openTime": "8:00 AM",
            "closeTime": "4:00 PM",
            "latitude": 42.347127,
            "longitude": -83.039345
        },
        {
            "name": "Madcap Coffee #24",
            "category": "Coffee Roaster",
            "streetAddress": "1413 Farmer St",
            "city": "Detroit",
            "state": "MI",
            "postalCode": "48226",
            "phoneNumber": "(313) 555-1023",
            "description": "Boutique roaster with a focus on single-origin beans.",
            "goodFor": "Coffee Enthusiasts",
            "openTime": "8:00 AM",
            "closeTime": "6:00 PM",
            "latitude": 42.343975,
            "longitude": -83.069467
        },
        {
            "name": "Astro Coffee #25",
            "category": "Cafe",
            "streetAddress": "2124 Michigan Ave",
            "city": "Detroit",
            "state": "MI",
            "postalCode": "48216",
            "phoneNumber": "(313) 555-1024",
            "description": "Trendy, relaxed cafe with artisanal coffee & pastries.",
            "goodFor": "Brunch",
            "openTime": "8:00 AM",
            "closeTime": "4:00 PM",
            "latitude": 42.337491,
            "longitude": -83.016084
        }
    ]
}
